[
  {
    "id": "mezquita-cathedral",
    "name": "Mezquita-Cathedral",
    "description": "A stunning example of Moorish architecture, once the Great Mosque of Córdoba and later converted to a cathedral.",
    "latitude": 37.8789,
    "longitude": -4.7798,
    "category": "religious",
    "imageUrl": "https://images.pexels.com/photos/5273634/pexels-photo-5273634.jpeg",
    "createdAt": "2023-01-15T12:00:00Z",
    "updatedAt": "2023-01-15T12:00:00Z"
  },
  {
    "id": "alcazar-de-los-reyes-cristianos",
    "name": "Alcázar de los Reyes Cristianos",
    "description": "A medieval fortress used by Isabella I of Castile and Ferdinand II of Aragon, featuring beautiful gardens and ancient baths.",
    "latitude": 37.8769,
    "longitude": -4.7820,
    "category": "historical",
    "imageUrl": "https://images.pexels.com/photos/5273571/pexels-photo-5273571.jpeg",
    "createdAt": "2023-01-15T12:30:00Z",
    "updatedAt": "2023-01-15T12:30:00Z"
  },
  {
    "id": "roman-bridge",
    "name": "Roman Bridge",
    "description": "An ancient bridge spanning the Guadalquivir River, built in the early 1st century BC, with modern reconstructions.",
    "latitude": 37.8763,
    "longitude": -4.7785,
    "category": "historical",
    "imageUrl": "https://images.pexels.com/photos/12512668/pexels-photo-12512668.jpeg",
    "createdAt": "2023-01-15T13:00:00Z",
    "updatedAt": "2023-01-15T13:00:00Z"
  },
  {
    "id": "juderia",
    "name": "Jewish Quarter (Judería)",
    "description": "Historic neighborhood with narrow winding streets and whitewashed houses, once home to Córdoba's Jewish community.",
    "latitude": 37.8783,
    "longitude": -4.7807,
    "category": "cultural",
    "imageUrl": "https://images.pexels.com/photos/5273584/pexels-photo-5273584.jpeg",
    "createdAt": "2023-01-15T13:30:00Z",
    "updatedAt": "2023-01-15T13:30:00Z"
  },
  {
    "id": "palacio-de-viana",
    "name": "Palacio de Viana",
    "description": "A noble mansion featuring 12 patios filled with flowers and a rich collection of historic artifacts.",
    "latitude": 37.8891,
    "longitude": -4.7748,
    "category": "cultural",
    "imageUrl": "https://images.pexels.com/photos/3879071/pexels-photo-3879071.jpeg",
    "createdAt": "2023-01-15T14:00:00Z",
    "updatedAt": "2023-01-15T14:00:00Z"
  },
  {
    "id": "calahorra-tower",
    "name": "Calahorra Tower",
    "description": "A fortified gate built in the late 12th century to protect the bridge, now home to a museum about Córdoba's religious history.",
    "latitude": 37.875497,
    "longitude": -4.776821,
    "category": "historical",
    "imageUrl": "https://images.pexels.com/photos/6382477/pexels-photo-6382477.jpeg",
    "createdAt": "2023-01-15T14:30:00Z",
    "updatedAt": "2023-01-15T14:30:00Z"
  },
  {
    "id": "medina-azahara",
    "name": "Medina Azahara",
    "description": "The ruins of a vast, fortified palace-city built by Abd-ar-Rahman III, located on the outskirts of Córdoba.",
    "latitude": 37.8881,
    "longitude": -4.8684,
    "category": "historical",
    "imageUrl": "https://images.pexels.com/photos/6048195/pexels-photo-6048195.jpeg",
    "createdAt": "2023-01-15T15:00:00Z",
    "updatedAt": "2023-01-15T15:00:00Z"
  },
  {
    "id": "patios-cordobeses",
    "name": "Patios Cordobeses",
    "description": "Traditional courtyards decorated with flowers, part of Córdoba's annual patio festival.",
    "latitude": 37.8845,
    "longitude": -4.7766,
    "category": "cultural",
    "imageUrl": "https://images.pexels.com/photos/7524598/pexels-photo-7524598.jpeg",
    "createdAt": "2023-01-15T15:30:00Z",
    "updatedAt": "2023-01-15T15:30:00Z"
  },
  {
    "id": "taberna-salinas",
    "name": "Taberna Salinas",
    "description": "One of Córdoba's oldest taverns, serving traditional Andalusian cuisine since 1879.",
    "latitude": 37.8791,
    "longitude": -4.7776,
    "category": "culinary",
    "imageUrl": "https://images.pexels.com/photos/5718025/pexels-photo-5718025.jpeg",
    "createdAt": "2023-01-15T16:00:00Z",
    "updatedAt": "2023-01-15T16:00:00Z"
  },
  {
    "id": "botanical-garden",
    "name": "Córdoba Botanical Garden",
    "description": "A lush garden featuring a wide variety of plants, including many native to Andalusia.",
    "latitude": 37.8695,
    "longitude": -4.7841,
    "category": "natural",
    "imageUrl": "https://images.pexels.com/photos/6044834/pexels-photo-6044834.jpeg",
    "createdAt": "2023-01-15T16:30:00Z",
    "updatedAt": "2023-01-15T16:30:00Z"
  }
]